<?xml version="1.0" encoding="UTF-8"?>
<markers><marker id="13" name="ICTU HB222" address="Trường ĐH CNTT và truyền thông Thái Nguyên, Phường Tân Thịnh, TP Thái Nguyên" lat="21.58711412634053" lng="105.80477138253332" type="1"/><marker id="14" name="2D Coffee" address="Đối diện KTX trường ĐH CNTT Thái Nhuyên, Phường Tân thịnh, TP Thái Nguyên" lat="21.586980083815273" lng="105.80468683780168" type="2"/><marker id="15" name="Tùng cofee- acoustic" address="đường z115, Tổ 4, phường tân thịnh Thái Nguyên (thành phố)" lat="21.583540854251208" lng="105.81016993093226" type="2"/><marker id="16" name="CRUSH Milk Tea" address=" Tân Thịnh, Thành phố Thái Nguyên" lat="21.583319639299173" lng="105.80811089418444" type="2"/><marker id="17" name="Nhà hàng 268" address="Đường Z 115, Quyết Thắng, Thành phố Thái Nguyên" lat="21.58687821272124" lng="105.80441065619118" type="1"/><marker id="18" name="Pizza online thái nguyên" address="Tân Thịnh, Thành phố Thái Nguyên" lat="21.58364142957345" lng="105.81081268392222" type="1"/><marker id="21" name="Corner Coffee" address="Tân Thịnh, Thành phố Thái Nguyên" lat="21.586301463363256" lng="105.8134536409957" type="2"/><marker id="22" name="Tami Quán" address="Tân Thịnh, Thành phố Thái Nguyên" lat="21.58605488270779" lng="105.8131646767647" type="1"/><marker id="23" name="Kalbi BBQ" address="Tân Thịnh, Thành phố Thái Nguyên, Thái Nguyên, Việt Nam" lat="21.582135059048905" lng="105.81201991109742" type="3"/></markers>
